[
  { "name": "أرض فضاء - جوهرة العروس", "lat": 21.8890, "lon": 39.0850, "type": "open", "elev": "3m" },
  { "name": "منطقة جبلية - شرق بريمان", "lat": 21.6650, "lon": 39.2850, "type": "rough", "elev": "55m" },
  { "name": "كثبان رملية - جنوب الخمرة", "lat": 21.2840, "lon": 39.2560, "type": "sand", "elev": "10m" },
  { "name": "منطقة صخرية - وادي عسفان", "lat": 22.0120, "lon": 39.4230, "type": "rough", "elev": "65m" },
  { "name": "أرض منبسطة - شمال ذهبان", "lat": 21.9380, "lon": 39.1420, "type": "open", "elev": "5m" },
  { "name": "منطقة رملية - شرق عسفان", "lat": 21.9125, "lon": 39.3512, "type": "sand", "elev": "25m" },
  { "name": "مخطط خالي - حي الشراع", "lat": 21.7581, "lon": 39.1062, "type": "open", "elev": "2m" }
]
