[
  { "name": "مخطط جوهرة العروس (مستوٍ)", "lat": 21.8890, "lon": 39.0850, "type": "open" },
  { "name": "شمال ذهبان - الهجرة (رملي)", "lat": 21.8210, "lon": 39.1560, "type": "sand" },
  { "name": "خليج سلمان (ساحات فضاء)", "lat": 21.8420, "lon": 39.1050, "type": "open" },
  { "name": "جنوب السنابل (أرض منبسطة)", "lat": 21.3210, "lon": 39.2740, "type": "open" },
  { "name": "منطقة برية - عسفان", "lat": 21.9125, "lon": 39.3512, "type": "sand" },
  { "name": "شرق هدى الشام (جبلي وعر)", "lat": 21.7120, "lon": 39.2550, "type": "rough" },
  { "name": "حي الفلاح (أرض صخرية)", "lat": 21.6650, "lon": 39.2850, "type": "rough" }
]
