[
  { "name": "بر عسفان - منطقة مفتوحة 1", "lat": 21.9215, "lon": 39.3622, "type": "open", "elev": "28m" },
  { "name": "بر عسفان - منطقة رملية 2", "lat": 21.9430, "lon": 39.3850, "type": "sand", "elev": "32m" },
  { "name": "مخطط جوهرة العروس - بلوك 1", "lat": 21.8955, "lon": 39.0740, "type": "open", "elev": "2m" },
  { "name": "مخطط جوهرة العروس - بلوك 2", "lat": 21.9120, "lon": 39.0650, "type": "open", "elev": "2m" },
  { "name": "شمال خليج سلمان - أرض فضاء", "lat": 21.8540, "lon": 39.0520, "type": "sand", "elev": "1m" },
  { "name": "شرق طريق الحرمين - منطقة برية", "lat": 21.6520, "lon": 39.3120, "type": "rough", "elev": "45m" },
  { "name": "جنوب حي الفروسية - ساحة خالية", "lat": 21.7120, "lon": 39.2550, "type": "open", "elev": "18m" },
  { "name": "منطقة هدى الشام - أرض منبسطة", "lat": 21.8650, "lon": 39.4520, "type": "rough", "elev": "52m" },
  { "name": "منطقة ذهبان - مخططات خالية", "lat": 21.9380, "lon": 39.1420, "type": "open", "elev": "5m" },
  { "name": "أرض فضاء - شمال شرق المطار", "lat": 21.7250, "lon": 39.2150, "type": "open", "elev": "12m" },
  { "name": "جنوب جدة - منطقة الخمرة البرية", "lat": 21.2540, "lon": 39.2680, "type": "sand", "elev": "8m" },
  { "name": "طريق الليث - منطقة رملية مفتوحة", "lat": 21.1120, "lon": 39.3520, "type": "sand", "elev": "11m" },
  { "name": "وادي القمر - عسفان", "lat": 22.0120, "lon": 39.4230, "type": "rough", "elev": "65m" },
  { "name": "منطقة مفتوحة - شرق الحمدانية", "lat": 21.7340, "lon": 39.2650, "type": "open", "elev": "22m" },
  { "name": "ساحة خالية - مخطط الفضيلة", "lat": 21.2150, "lon": 39.2840, "type": "open", "elev": "6m" },
  { "name": "أرض برية - شرق بحرة", "lat": 21.4120, "lon": 39.5120, "type": "rough", "elev": "70m" },
  { "name": "مخطط الوليد - شمال جدة", "lat": 21.8210, "lon": 39.1560, "type": "open", "elev": "14m" },
  { "name": "ساحة مفتوحة - خلف صناعية عسفان", "lat": 21.9650, "lon": 39.3120, "type": "open", "elev": "26m" },
  { "name": "منطقة رملية - جنوب جبل عكوة", "lat": 21.1850, "lon": 39.3850, "type": "sand", "elev": "15m" },
  { "name": "أرض فضاء - حي الشراع (أطراف)", "lat": 21.7650, "lon": 39.0980, "type": "open", "elev": "3m" },
  { "name": "منطقة برية - شرق طريق مكة القديم", "lat": 21.3650, "lon": 39.4520, "type": "rough", "elev": "80m" },
  { "name": "ساحة خالية - مخطط الياقوت", "lat": 21.7420, "lon": 39.0850, "type": "open", "elev": "2m" },
  { "name": "منطقة مفتوحة - شمال مزارع ذهبان", "lat": 21.9750, "lon": 39.1650, "type": "sand", "elev": "7m" },
  { "name": "أرض فضاء - شرق مخطط التيسير", "lat": 21.5650, "lon": 39.2980, "type": "rough", "elev": "95m" },
  { "name": "منطقة برية - طريق الهجرة كم 40", "lat": 22.0520, "lon": 39.3250, "type": "sand", "elev": "35m" },
  { "name": "ساحة مفتوحة - جنوب حي السنابل", "lat": 21.3210, "lon": 39.2740, "type": "open", "elev": "9m" },
  { "name": "منطقة وعرة - شرق الخط السريع (الاجاويد)", "lat": 21.3420, "lon": 39.3520, "type": "rough", "elev": "60m" },
  { "name": "أرض فضاء - شمال رابغ (احتياطي)", "lat": 22.5120, "lon": 39.0520, "type": "sand", "elev": "4m" },
  { "name": "منطقة مفتوحة - شرق بريمان", "lat": 21.6650, "lon": 39.2850, "type": "rough", "elev": "55m" },
  { "name": "مخطط خالي - شمال حي الصواري", "lat": 21.7580, "lon": 39.0820, "type": "open", "elev": "2m" }
]
