[
  { "name": "صحراء عسفان", "lat": 21.9215, "lon": 39.3622, "type": "sand" },
  { "name": "منطقة جبلية شرق بريمان", "lat": 21.6650, "lon": 39.2850, "type": "rough" },
  { "name": "مخطط جوهرة العروس", "lat": 21.8890, "lon": 39.0850, "type": "open" },
  { "name": "وادي القمر", "lat": 22.0120, "lon": 39.4230, "type": "rough" },
  { "name": "منطقة ذهبان البرية", "lat": 21.9380, "lon": 39.1420, "type": "open" },
  { "name": "جنوب الخمرة", "lat": 21.2840, "lon": 39.2560, "type": "sand" },
  { "name": "شرق بحرة", "lat": 21.4120, "lon": 39.5120, "type": "rough" },
  { "name": "شرق الحمدانية", "lat": 21.7340, "lon": 39.2650, "type": "open" },
  { "name": "طريق الليث", "lat": 21.1120, "lon": 39.3520, "type": "sand" },
  { "name": "هدى الشام", "lat": 21.8650, "lon": 39.4520, "type": "rough" },
  { "name": "خلف حي الفروسية", "lat": 21.7120, "lon": 39.2550, "type": "open" },
  { "name": "مخطط الوليد", "lat": 21.8210, "lon": 39.1560, "type": "open" },
  { "name": "شرق الخط السريع", "lat": 21.6520, "lon": 39.3120, "type": "rough" },
  { "name": "وادي عسفان", "lat": 21.9450, "lon": 39.2120, "type": "sand" }
]
