[
  {
    "name": "مخطط جوهرة العروس (الجزء الغربي)",
    "lat": 21.8890,
    "lon": 39.0850,
    "type": "open",
    "desc": "أرض فضاء منبسطة تماماً ممسوحة بالكامل، مثالية للهبوط."
  },
  {
    "name": "شمال ذهبان - مخطط الهجرة (رملي)",
    "lat": 21.8210,
    "lon": 39.1560,
    "type": "sand",
    "desc": "أرض مستوية بوضوح لكن التربة رملية ناعمة مع شجيرات خفيفة."
  },
  {
    "name": "منطقة البحيرات - خليج سلمان",
    "lat": 21.8420,
    "lon": 39.1050,
    "type": "open",
    "desc": "ساحات مفتوحة بعيدة عن العمران، أرضها سبخة قوية ومستوية."
  },
  {
    "name": "شرق ذهبان - بداية المرتفعات",
    "lat": 21.9125,
    "lon": 39.3512,
    "type": "rough",
    "desc": "تحذير: تضاريس صخرية غير منتظمة، لا تصلح للهبوط العادي."
  },
  {
    "name": "جنوب حي السنابل (سهل مفتوح)",
    "lat": 21.3210,
    "lon": 39.2740,
    "type": "open",
    "desc": "أرض ممسوحة مستوية بعيدة عن أعمدة الضغط العالي."
  },
  {
    "name": "منطقة عسفان (كثبان رملية)",
    "lat": 21.9120,
    "lon": 39.3950,
    "type": "sand",
    "desc": "منطقة رملية صحراوية بامتياز، تضاريسها متغيرة."
  },
  {
    "name": "محيط مخطط الفلاح (شرق الدار البيضاء)",
    "lat": 21.6650,
    "lon": 39.2850,
    "type": "rough",
    "desc": "منطقة جبلية وعرة وصخرية، خطر جداً."
  }
]
