[
  { "name": "صحراء عسفان - رمال ناعمة", "lat": 21.9215, "lon": 39.3622, "type": "sand", "elev": "28m" },
  { "name": "هضبة صخرية - شرق بريمان", "lat": 21.6650, "lon": 39.2850, "type": "rough", "elev": "55m" },
  { "name": "أرض مستوية - مخطط جوهرة العروس", "lat": 21.8890, "lon": 39.0850, "type": "open", "elev": "3m" },
  { "name": "منطقة جبلية وعرة - وادي القمر", "lat": 22.0120, "lon": 39.4230, "type": "rough", "elev": "65m" },
  { "name": "سهل منبسط - شمال ذهبان", "lat": 21.9380, "lon": 39.1420, "type": "open", "elev": "5m" },
  { "name": "كثبان رملية - جنوب الخمرة", "lat": 21.2840, "lon": 39.2560, "type": "sand", "elev": "10m" },
  { "name": "منطقة صخرية - شرق بحرة", "lat": 21.4120, "lon": 39.5120, "type": "rough", "elev": "70m" },
  { "name": "أرض فضاء - شرق الحمدانية", "lat": 21.7340, "lon": 39.2650, "type": "open", "elev": "22m" },
  { "name": "منطقة رملية - طريق الليث", "lat": 21.1120, "lon": 39.3520, "type": "sand", "elev": "11m" },
  { "name": "منطقة جبلية - طريق هدى الشام", "lat": 21.8650, "lon": 39.4520, "type": "rough", "elev": "52m" },
  { "name": "أرض مستوية - خلف جامعة جدة", "lat": 21.8950, "lon": 39.2980, "type": "open", "elev": "20m" },
  { "name": "منطقة برية - شمال جدة (مخطط الوليد)", "lat": 21.8210, "lon": 39.1560, "type": "open", "elev": "14m" },
  { "name": "صحراء مفتوحة - وادي عسفان", "lat": 21.9450, "lon": 39.2120, "type": "sand", "elev": "30m" },
  { "name": "تضاريس صخرية - شرق الاجاويد", "lat": 21.3420, "lon": 39.3520, "type": "rough", "elev": "60m" },
  { "name": "أرض منبسطة - جنوب حي السنابل", "lat": 21.3210, "lon": 39.2740, "type": "open", "elev": "9m" },
  { "name": "منطقة رملية - شرق بريمان", "lat": 21.6850, "lon": 39.3120, "type": "sand", "elev": "48m" },
  { "name": "أرض فضاء - شمال رابغ", "lat": 22.5120, "lon": 39.0520, "type": "sand", "elev": "4m" },
  { "name": "منطقة جبلية - شرق مكة القديم", "lat": 21.3650, "lon": 39.4520, "type": "rough", "elev": "80m" },
  { "name": "ساحة مفتوحة - مخطط الفضيلة", "lat": 21.2150, "lon": 39.2840, "type": "open", "elev": "6m" },
  { "name": "منطقة صخرية - شرق الخط السريع", "lat": 21.6520, "lon": 39.3120, "type": "rough", "elev": "45m" }
]
