[
  { "name": "أرض فضاء - شمال أبحر (حي الشراع)", "lat": 21.7581, "lon": 39.1062, "type": "open", "elev": "2m" },
  { "name": "مخطط خالي - أبحر الشمالية 2", "lat": 21.7522, "lon": 39.1123, "type": "open", "elev": "3m" },
  { "name": "منطقة برية - شرق طريق عسفان", "lat": 21.9125, "lon": 39.3512, "type": "sand", "elev": "25m" },
  { "name": "ساحة مفتوحة - خلف جامعة جدة", "lat": 21.8950, "lon": 39.2980, "type": "open", "elev": "20m" },
  { "name": "منطقة مفتوحة - شرق الرحيلي", "lat": 21.7850, "lon": 39.1560, "type": "rough", "elev": "12m" },
  { "name": "أرض فضاء - شرق حي الحمدانية", "lat": 21.7245, "lon": 39.2430, "type": "open", "elev": "15m" },
  { "name": "منطقة برية - شمال ذهبان", "lat": 21.9540, "lon": 39.1230, "type": "sand", "elev": "4m" },
  { "name": "ساحة خالية - حي الفلاح (شرق)", "lat": 21.6890, "lon": 39.2670, "type": "open", "elev": "18m" },
  { "name": "منطقة مفتوحة - طريق هدى الشام", "lat": 21.8410, "lon": 39.4230, "type": "rough", "elev": "45m" },
  { "name": "أرض فضاء - خلف حي النزهة", "lat": 21.6101, "lon": 39.1822, "type": "open", "elev": "5m" },
  { "name": "مخطط خالي - حي الصواري", "lat": 21.7410, "lon": 39.0980, "type": "open", "elev": "2m" },
  { "name": "منطقة برية - شرق بحرة", "lat": 21.3850, "lon": 39.4890, "type": "rough", "elev": "55m" },
  { "name": "كثبان رملية - جنوب الخمرة", "lat": 21.2840, "lon": 39.2560, "type": "sand", "elev": "10m" },
  { "name": "منطقة مفتوحة - طريق الليث القديم", "lat": 21.1560, "lon": 39.3120, "type": "sand", "elev": "14m" },
  { "name": "ساحة خالية - شرق حي السامر", "lat": 21.5830, "lon": 39.2540, "type": "open", "elev": "22m" },
  { "name": "منطقة وعرة - جبال شرق جدة", "lat": 21.5430, "lon": 39.3890, "type": "rough", "elev": "85m" },
  { "name": "أرض فضاء - مخطط جوهرة العروس", "lat": 21.8890, "lon": 39.0850, "type": "open", "elev": "3m" },
  { "name": "منطقة برية - وادي عسفان", "lat": 21.9450, "lon": 39.2120, "type": "sand", "elev": "30m" },
  { "name": "ساحة مفتوحة - جنوب مطار الملك عبدالعزيز", "lat": 21.6210, "lon": 39.1540, "type": "open", "elev": "6m" },
  { "name": "منطقة رملية - شرق حي السنابل", "lat": 21.3540, "lon": 39.2980, "type": "sand", "elev": "12m" }
]
