[
  { "name": "منطقة أبحر المفتوحة 1", "lat": 21.7581, "lon": 39.1062, "type": "open", "elev": "3m" },
  { "name": "حافة تلال أبحر (وعرة)", "lat": 21.7341, "lon": 39.1210, "type": "rough", "elev": "18m" },
  { "name": "منطقة عسفان البرية", "lat": 21.9125, "lon": 39.3512, "type": "sand", "elev": "25m" },
  { "name": "أرض فضاء شرق جدة", "lat": 21.5312, "lon": 39.2104, "type": "open", "elev": "7m" },
  { "name": "منطقة رملية جنوبية", "lat": 21.4302, "lon": 39.2331, "type": "sand", "elev": "12m" }
]
