[
  { "name": "أرض فضاء - جوهرة العروس", "lat": 21.8890, "lon": 39.0850, "type": "open" },
  { "name": "منطقة جبلية - بريمان", "lat": 21.6650, "lon": 39.2850, "type": "rough" },
  { "name": "كثبان رملية - جنوب الخمرة", "lat": 21.2840, "lon": 39.2560, "type": "sand" },
  { "name": "تضاريس جبلية - وادي القمر", "lat": 22.0120, "lon": 39.4230, "type": "rough" },
  { "name": "أرض منبسطة - ذهبان", "lat": 21.9380, "lon": 39.1420, "type": "open" },
  { "name": "صحراء عسفان", "lat": 21.9125, "lon": 39.3512, "type": "sand" },
  { "name": "ساحة مفتوحة - الحمدانية", "lat": 21.7340, "lon": 39.2650, "type": "open" },
  { "name": "منطقة صخرية - شرق بحرة", "lat": 21.4120, "lon": 39.5120, "type": "rough" }
]
